{
  "provincias": [
    {
      "nombre_completo": "Provincia de Misiones",
      "fuente": "IGN",
      "iso_id": "AR-N",
      "nombre": "Misiones",
      "id": "54",
      "categoria": "Provincia",
      "iso_nombre": "Misiones",
      "centroide": { "lat": -26.87, "lon": -54.65 },
      "zoom": 5.5
    },
    {
      "nombre_completo": "Provincia de San Luis",
      "fuente": "IGN",
      "iso_id": "AR-D",
      "nombre": "San Luis",
      "id": "74",
      "categoria": "Provincia",
      "iso_nombre": "San Luis",
      "centroide": { "lat": -33.75, "lon": -66.02 },
      "zoom": 5
    },
    {
      "nombre_completo": "Provincia de San Juan",
      "fuente": "IGN",
      "iso_id": "AR-J",
      "nombre": "San Juan",
      "id": "70",
      "categoria": "Provincia",
      "iso_nombre": "San Juan",
      "centroide": { "lat": -30.86, "lon": -68.88 },
      "zoom": 5
    },
    {
      "nombre_completo": "Provincia de Entre Ríos",
      "fuente": "IGN",
      "iso_id": "AR-E",
      "nombre": "Entre Ríos",
      "id": "30",
      "categoria": "Provincia",
      "iso_nombre": "Entre Rios",
      "centroide": { "lat": -32.05, "lon": -59.2 },
      "zoom": 5
    },
    {
      "nombre_completo": "Provincia de Santa Cruz",
      "fuente": "IGN",
      "iso_id": "AR-Z",
      "nombre": "Santa Cruz",
      "id": "78",
      "categoria": "Provincia",
      "iso_nombre": "Santa Cruz",
      "centroide": { "lat": -49.6, "lon": -69.95 },
      "zoom": 4
    },
    {
      "nombre_completo": "Provincia de Río Negro",
      "fuente": "IGN",
      "iso_id": "AR-R",
      "nombre": "Río Negro",
      "id": "62",
      "categoria": "Provincia",
      "iso_nombre": "Rio Negro",
      "centroide": { "lat": -40.4, "lon": -67.22 },
      "zoom": 4.5
    },
    {
      "nombre_completo": "Provincia del Chubut",
      "fuente": "IGN",
      "iso_id": "AR-U",
      "nombre": "Chubut",
      "id": "26",
      "categoria": "Provincia",
      "iso_nombre": "Chubut",
      "centroide": { "lat": -44, "lon": -68.52 },
      "zoom": 4.5
    },
    {
      "nombre_completo": "Provincia de Córdoba",
      "fuente": "IGN",
      "iso_id": "AR-X",
      "nombre": "Córdoba",
      "id": "14",
      "categoria": "Provincia",
      "iso_nombre": "Cordoba",
      "centroide": { "lat": -32.64, "lon": -63.8 },
      "zoom": 5
    },
    {
      "nombre_completo": "Provincia de Mendoza",
      "fuente": "IGN",
      "iso_id": "AR-M",
      "nombre": "Mendoza",
      "id": "50",
      "categoria": "Provincia",
      "iso_nombre": "Mendoza",
      "centroide": { "lat": -35.12, "lon": -68.58 },
      "zoom": 5
    },
    {
      "nombre_completo": "Provincia de La Rioja",
      "fuente": "IGN",
      "iso_id": "AR-F",
      "nombre": "La Rioja",
      "id": "46",
      "categoria": "Provincia",
      "iso_nombre": "La Rioja",
      "centroide": { "lat": -29.68, "lon": -67.18 },
      "zoom": 5
    },
    {
      "nombre_completo": "Provincia de Catamarca",
      "fuente": "IGN",
      "iso_id": "AR-K",
      "nombre": "Catamarca",
      "id": "10",
      "categoria": "Provincia",
      "iso_nombre": "Catamarca",
      "centroide": { "lat": -28, "lon": -66.94 },
      "zoom": 5
    },
    {
      "nombre_completo": "Provincia de La Pampa",
      "fuente": "IGN",
      "iso_id": "AR-L",
      "nombre": "La Pampa",
      "id": "42",
      "categoria": "Provincia",
      "iso_nombre": "La Pampa",
      "centroide": { "lat": -37.33, "lon": -64.94 },
      "zoom": 5
    },
    {
      "nombre_completo": "Provincia de Santiago del Estero",
      "fuente": "IGN",
      "iso_id": "AR-G",
      "nombre": "Santiago del Estero",
      "id": "86",
      "categoria": "Provincia",
      "iso_nombre": "Santiago del Estero",
      "centroide": { "lat": -28.18, "lon": -63.25 },
      "zoom": 5
    },
    {
      "nombre_completo": "Provincia de Corrientes",
      "fuente": "IGN",
      "iso_id": "AR-W",
      "nombre": "Corrientes",
      "id": "18",
      "categoria": "Provincia",
      "iso_nombre": "Corrientes",
      "centroide": { "lat": -28.77, "lon": -57.8 },
      "zoom": 5
    },
    {
      "nombre_completo": "Provincia de Santa Fe",
      "fuente": "IGN",
      "iso_id": "AR-S",
      "nombre": "Santa Fe",
      "id": "82",
      "categoria": "Provincia",
      "iso_nombre": "Santa Fe",
      "centroide": { "lat": -31.5, "lon": -60.94 },
      "zoom": 5
    },
    {
      "nombre_completo": "Provincia de Tucumán",
      "fuente": "IGN",
      "iso_id": "AR-T",
      "nombre": "Tucumán",
      "id": "90",
      "categoria": "Provincia",
      "iso_nombre": "Tucuman",
      "centroide": { "lat": -26.94, "lon": -65.36 },
      "zoom": 5.5
    },
    {
      "nombre_completo": "Provincia del Neuquén",
      "fuente": "IGN",
      "iso_id": "AR-Q",
      "nombre": "Neuquén",
      "id": "58",
      "categoria": "Provincia",
      "iso_nombre": "Neuquen",
      "centroide": { "lat": -38.64, "lon": -70.11 },
      "zoom": 5
    },
    {
      "nombre_completo": "Provincia de Salta",
      "fuente": "IGN",
      "iso_id": "AR-A",
      "nombre": "Salta",
      "id": "66",
      "categoria": "Provincia",
      "iso_nombre": "Salta",
      "centroide": { "lat": -24.29, "lon": -64.81 },
      "zoom": 4.5
    },
    {
      "nombre_completo": "Provincia del Chaco",
      "fuente": "IGN",
      "iso_id": "AR-H",
      "nombre": "Chaco",
      "id": "22",
      "categoria": "Provincia",
      "iso_nombre": "Chaco",
      "centroide": { "lat": -26.38, "lon": -60.76 },
      "zoom": 4.5
    },
    {
      "nombre_completo": "Provincia de Formosa",
      "fuente": "IGN",
      "iso_id": "AR-P",
      "nombre": "Formosa",
      "id": "34",
      "categoria": "Provincia",
      "iso_nombre": "Formosa",
      "centroide": { "lat": -24.89, "lon": -59.93 },
      "zoom": 5
    },
    {
      "nombre_completo": "Provincia de Jujuy",
      "fuente": "IGN",
      "iso_id": "AR-Y",
      "nombre": "Jujuy",
      "id": "38",
      "categoria": "Provincia",
      "iso_nombre": "Jujuy",
      "centroide": { "lat": -23.32, "lon": -65.76 },
      "zoom": 5.5
    },
    {
      "nombre_completo": "Provincia de Buenos Aires",
      "fuente": "IGN",
      "iso_id": "AR-B",
      "nombre": "Buenos Aires",
      "id": "06",
      "categoria": "Provincia",
      "iso_nombre": "Buenos Aires",
      "centroide": { "lat": -37.67, "lon": -60.55 },
      "zoom": 4.5
    },
    {
      "nombre_completo": "Provincia de Tierra del Fuego, Antártida e Islas del Atlántico Sur",
      "fuente": "IGN",
      "iso_id": "AR-V",
      "nombre": "Tierra del Fuego, Antártida e Islas del Atlántico Sur",
      "id": "94",
      "categoria": "Provincia",
      "iso_nombre": "Tierra del Fuego",
      "centroide": { "lat": -54.21, "lon": -65.56 },
      "zoom": 4.5
    }
  ],
  "total": 24,
  "cantidad": 24,
  "parametros": {},
  "inicio": 0
}
